{
"type": "FeatureCollection",
"name": "SomeStations",
"crs": { "type": "name", "properties": { "name": "urn:ogc:def:crs:OGC:1.3:CRS84" } },
"features": [
{ "type": "Feature", "properties": { "line": "J", "name": "Patchen Ave & Broadway at NE corner", "objectid": 93.0, "url": "http:\/\/web.mta.info\/nyct\/service\/", "xcoord": -73.92825699993675, "ycoord": 40.692930000852542 }, "geometry": { "type": "Point", "coordinates": [ -73.92825699993675, 40.692930000852542 ] } },
{ "type": "Feature", "properties": { "line": "J", "name": "Patchen Ave & Broadway at SW corner", "objectid": 94.0, "url": "http:\/\/web.mta.info\/nyct\/service\/", "xcoord": -73.927939999869039, "ycoord": 40.692929001344019 }, "geometry": { "type": "Point", "coordinates": [ -73.927939999869039, 40.692929001344019 ] } },
{ "type": "Feature", "properties": { "line": "J-M-Z", "name": "Broadway & Myrtle Ave at NW corner", "objectid": 95.0, "url": "http:\/\/web.mta.info\/nyct\/service\/", "xcoord": -73.935460999763109, "ycoord": 40.696893001205396 }, "geometry": { "type": "Point", "coordinates": [ -73.935460999763109, 40.696893001205396 ] } },
{ "type": "Feature", "properties": { "line": "J-M-Z", "name": "Broadway & Myrtle Ave at SW corner", "objectid": 96.0, "url": "http:\/\/web.mta.info\/nyct\/service\/", "xcoord": -73.935559000133964, "ycoord": 40.696987001203468 }, "geometry": { "type": "Point", "coordinates": [ -73.935559000133964, 40.696987001203468 ] } },
{ "type": "Feature", "properties": { "line": "J-M", "name": "Flushing Ave & Broadway at SE corner", "objectid": 97.0, "url": "http:\/\/web.mta.info\/nyct\/service\/", "xcoord": -73.941994999534955, "ycoord": 40.700629001087371 }, "geometry": { "type": "Point", "coordinates": [ -73.941994999534955, 40.700629001087371 ] } },
{ "type": "Feature", "properties": { "line": "J-M", "name": null, "objectid": 98.0, "url": "http:\/\/web.mta.info\/nyct\/service\/", "xcoord": -73.941672000370488, "ycoord": 40.700720001208751 }, "geometry": { "type": "Point", "coordinates": [ -73.941672000370488, 40.700720001208751 ] } },
{ "type": "Feature", "properties": { "line": "J-M", "name": "Flushing Ave & Broadway at SE corner", "objectid": 99.0, "url": "http:\/\/web.mta.info\/nyct\/service\/", "xcoord": -73.942173000051412, "ycoord": 40.700634001147975 }, "geometry": { "type": "Point", "coordinates": [ -73.942173000051412, 40.700634001147975 ] } },
{ "type": "Feature", "properties": { "line": "J-M", "name": "Flushing Ave & Broadway at NW corner", "objectid": 100.0, "url": "http:\/\/web.mta.info\/nyct\/service\/", "xcoord": -73.941709999978855, "ycoord": 40.700847000783398 }, "geometry": { "type": "Point", "coordinates": [ -73.941709999978855, 40.700847000783398 ] } },
{ "type": "Feature", "properties": { "line": "J-M", "name": "Moore St & Broadway at SW corner", "objectid": 101.0, "url": "http:\/\/web.mta.info\/nyct\/service\/", "xcoord": -73.948323999439424, "ycoord": 40.704279000920536 }, "geometry": { "type": "Point", "coordinates": [ -73.948323999439424, 40.704279000920536 ] } },
{ "type": "Feature", "properties": { "line": "M", "name": "Myrtle Ave & Cedar St at NW corner", "objectid": 121.0, "url": "http:\/\/web.mta.info\/nyct\/service\/", "xcoord": -73.926371000089219, "ycoord": 40.698033000676439 }, "geometry": { "type": "Point", "coordinates": [ -73.926371000089219, 40.698033000676439 ] } },
{ "type": "Feature", "properties": { "line": "M", "name": "Myrtle Ave & Cedar St at SW corner", "objectid": 122.0, "url": "http:\/\/web.mta.info\/nyct\/service\/", "xcoord": -73.926524999829368, "ycoord": 40.697876001059875 }, "geometry": { "type": "Point", "coordinates": [ -73.926524999829368, 40.697876001059875 ] } },
{ "type": "Feature", "properties": { "line": "G", "name": "Union Ave & Flushing Ave at SW corner", "objectid": 182.0, "url": "http:\/\/web.mta.info\/nyct\/service\/", "xcoord": -73.950164000390046, "ycoord": 40.699582000524977 }, "geometry": { "type": "Point", "coordinates": [ -73.950164000390046, 40.699582000524977 ] } },
{ "type": "Feature", "properties": { "line": "G", "name": "Marcy Ave & Myrtle Ave at NW corner", "objectid": 183.0, "url": "http:\/\/web.mta.info\/nyct\/service\/", "xcoord": -73.949480000297825, "ycoord": 40.695436001120171 }, "geometry": { "type": "Point", "coordinates": [ -73.949480000297825, 40.695436001120171 ] } },
{ "type": "Feature", "properties": { "line": "G", "name": "Nostrand Ave & Lafayette Ave at NW corner", "objectid": 184.0, "url": "http:\/\/web.mta.info\/nyct\/service\/", "xcoord": -73.95161600010411, "ycoord": 40.689995000553658 }, "geometry": { "type": "Point", "coordinates": [ -73.95161600010411, 40.689995000553658 ] } },
{ "type": "Feature", "properties": { "line": "G", "name": "Nostrand Ave & Lafayette Ave at SW corner", "objectid": 185.0, "url": "http:\/\/web.mta.info\/nyct\/service\/", "xcoord": -73.951612000239763, "ycoord": 40.689757001290538 }, "geometry": { "type": "Point", "coordinates": [ -73.951612000239763, 40.689757001290538 ] } },
{ "type": "Feature", "properties": { "line": "G", "name": "Classon Ave & Lafayette Ave at NW corner", "objectid": 186.0, "url": "http:\/\/web.mta.info\/nyct\/service\/", "xcoord": -73.960215000217616, "ycoord": 40.68894200054612 }, "geometry": { "type": "Point", "coordinates": [ -73.960215000217616, 40.68894200054612 ] } },
{ "type": "Feature", "properties": { "line": "G", "name": "Classon Ave & Lafayette Ave at SE corner", "objectid": 187.0, "url": "http:\/\/web.mta.info\/nyct\/service\/", "xcoord": -73.959871000162337, "ycoord": 40.688781000773709 }, "geometry": { "type": "Point", "coordinates": [ -73.959871000162337, 40.688781000773709 ] } },
{ "type": "Feature", "properties": { "line": "G", "name": "Classon Ave & Lafayette Ave at SW corner", "objectid": 188.0, "url": "http:\/\/web.mta.info\/nyct\/service\/", "xcoord": -73.960189999894624, "ycoord": 40.688753001142473 }, "geometry": { "type": "Point", "coordinates": [ -73.960189999894624, 40.688753001142473 ] } },
{ "type": "Feature", "properties": { "line": "G", "name": "Clinton Ave & Lafayette Ave at NE corner", "objectid": 189.0, "url": "http:\/\/web.mta.info\/nyct\/service\/", "xcoord": -73.96757500050515, "ycoord": 40.688114001173773 }, "geometry": { "type": "Point", "coordinates": [ -73.96757500050515, 40.688114001173773 ] } },
{ "type": "Feature", "properties": { "line": "G", "name": "Clinton Ave & Lafayette Ave at NE corner", "objectid": 190.0, "url": "http:\/\/web.mta.info\/nyct\/service\/", "xcoord": -73.96757500050515, "ycoord": 40.688114001173773 }, "geometry": { "type": "Point", "coordinates": [ -73.96757500050515, 40.688114001173773 ] } },
{ "type": "Feature", "properties": { "line": "G", "name": "Clinton Ave & Lafayette Ave at SW corner", "objectid": 191.0, "url": "http:\/\/web.mta.info\/nyct\/service\/", "xcoord": -73.967931000317108, "ycoord": 40.687875001087292 }, "geometry": { "type": "Point", "coordinates": [ -73.967931000317108, 40.687875001087292 ] } },
{ "type": "Feature", "properties": { "line": "G", "name": "Clinton Ave & Lafayette Ave at SW corner", "objectid": 192.0, "url": "http:\/\/web.mta.info\/nyct\/service\/", "xcoord": -73.967931000317108, "ycoord": 40.687875001087292 }, "geometry": { "type": "Point", "coordinates": [ -73.967931000317108, 40.687875001087292 ] } },
{ "type": "Feature", "properties": { "line": "G", "name": "Washington Ave & Lafayette Ave at NE corner", "objectid": 193.0, "url": "http:\/\/web.mta.info\/nyct\/service\/", "xcoord": -73.965748999756769, "ycoord": 40.688460000573222 }, "geometry": { "type": "Point", "coordinates": [ -73.965748999756769, 40.688460000573222 ] } },
{ "type": "Feature", "properties": { "line": "G", "name": "Washington Ave & Lafayette Ave at NE corner", "objectid": 194.0, "url": "http:\/\/web.mta.info\/nyct\/service\/", "xcoord": -73.965748999756769, "ycoord": 40.688460000573222 }, "geometry": { "type": "Point", "coordinates": [ -73.965748999756769, 40.688460000573222 ] } },
{ "type": "Feature", "properties": { "line": "G", "name": "Washington Ave & Lafayette Ave at SE corner", "objectid": 195.0, "url": "http:\/\/web.mta.info\/nyct\/service\/", "xcoord": -73.965578999989006, "ycoord": 40.688157000903459 }, "geometry": { "type": "Point", "coordinates": [ -73.965578999989006, 40.688157000903459 ] } },
{ "type": "Feature", "properties": { "line": "G", "name": "Washington Ave & Lafayette Ave at SE corner", "objectid": 196.0, "url": "http:\/\/web.mta.info\/nyct\/service\/", "xcoord": -73.965578999989006, "ycoord": 40.688157000903459 }, "geometry": { "type": "Point", "coordinates": [ -73.965578999989006, 40.688157000903459 ] } },
{ "type": "Feature", "properties": { "line": "G", "name": "Fort Greene Pl & Lafayette Ave at NE corner", "objectid": 197.0, "url": "http:\/\/web.mta.info\/nyct\/service\/", "xcoord": -73.976289999513739, "ycoord": 40.687159000676019 }, "geometry": { "type": "Point", "coordinates": [ -73.976289999513739, 40.687159000676019 ] } },
{ "type": "Feature", "properties": { "line": "G", "name": "Fort Greene Pl & Lafayette Ave at NW corner", "objectid": 198.0, "url": "http:\/\/web.mta.info\/nyct\/service\/", "xcoord": -73.976865000425633, "ycoord": 40.687160001116247 }, "geometry": { "type": "Point", "coordinates": [ -73.976865000425633, 40.687160001116247 ] } },
{ "type": "Feature", "properties": { "line": "A-C-J-Z-2-3-4-5", "name": "Red Cross Pl & Adams St at SW corner", "objectid": 416.0, "url": "http:\/\/web.mta.info\/nyct\/service\/", "xcoord": -73.988920000265125, "ycoord": 40.699112000776267 }, "geometry": { "type": "Point", "coordinates": [ -73.988920000265125, 40.699112000776267 ] } },
{ "type": "Feature", "properties": { "line": "A-C-J-Z-2-3-4-5", "name": "Sands St & Adams St at SE corner", "objectid": 417.0, "url": "http:\/\/web.mta.info\/nyct\/service\/", "xcoord": -73.988273999865967, "ycoord": 40.699212000788499 }, "geometry": { "type": "Point", "coordinates": [ -73.988273999865967, 40.699212000788499 ] } },
{ "type": "Feature", "properties": { "line": "A-C-F-R", "name": "Jay St & Metrotech Walk at SW corner", "objectid": 418.0, "url": "http:\/\/web.mta.info\/nyct\/service\/", "xcoord": -73.987401999836877, "ycoord": 40.69324300093006 }, "geometry": { "type": "Point", "coordinates": [ -73.987401999836877, 40.69324300093006 ] } },
{ "type": "Feature", "properties": { "line": "A-C-F-R", "name": "Jay St & Metrotech Walk at SE corner", "objectid": 419.0, "url": "http:\/\/web.mta.info\/nyct\/service\/", "xcoord": -73.98708900020479, "ycoord": 40.693491000800925 }, "geometry": { "type": "Point", "coordinates": [ -73.98708900020479, 40.693491000800925 ] } },
{ "type": "Feature", "properties": { "line": "A-C-F-R", "name": "Jay St & Metrotech Walk at SW corner", "objectid": 420.0, "url": "http:\/\/web.mta.info\/nyct\/service\/", "xcoord": -73.987407999755121, "ycoord": 40.69315300072796 }, "geometry": { "type": "Point", "coordinates": [ -73.987407999755121, 40.69315300072796 ] } },
{ "type": "Feature", "properties": { "line": "A-C-F-R", "name": "Jay St & Metrotech Walk at SW corner", "objectid": 421.0, "url": "http:\/\/web.mta.info\/nyct\/service\/", "xcoord": -73.987483999431149, "ycoord": 40.693153000913703 }, "geometry": { "type": "Point", "coordinates": [ -73.987483999431149, 40.693153000913703 ] } },
{ "type": "Feature", "properties": { "line": "A-C-F-R", "name": "Jay St & Metrotech Walk at SW corner", "objectid": 422.0, "url": "http:\/\/web.mta.info\/nyct\/service\/", "xcoord": -73.987480999949327, "ycoord": 40.693243000545678 }, "geometry": { "type": "Point", "coordinates": [ -73.987480999949327, 40.693243000545678 ] } },
{ "type": "Feature", "properties": { "line": "A-C-F-R", "name": "Jay St & Willoughby St at NE corner", "objectid": 423.0, "url": "http:\/\/web.mta.info\/nyct\/service\/", "xcoord": -73.987161999976692, "ycoord": 40.692397001054964 }, "geometry": { "type": "Point", "coordinates": [ -73.987161999976692, 40.692397001054964 ] } },
{ "type": "Feature", "properties": { "line": "A-C-F-R", "name": "Jay St & Willoughby St at NE corner", "objectid": 424.0, "url": "http:\/\/web.mta.info\/nyct\/service\/", "xcoord": -73.987166999754734, "ycoord": 40.692329001176702 }, "geometry": { "type": "Point", "coordinates": [ -73.987166999754734, 40.692329001176702 ] } },
{ "type": "Feature", "properties": { "line": "C", "name": "Washington Ave & Fulton Ave at SE corner", "objectid": 425.0, "url": "http:\/\/web.mta.info\/nyct\/service\/", "xcoord": -73.964629999702353, "ycoord": 40.68286800096481 }, "geometry": { "type": "Point", "coordinates": [ -73.964629999702353, 40.68286800096481 ] } },
{ "type": "Feature", "properties": { "line": "C", "name": "Washington Ave & Fulton Ave at NE corner", "objectid": 426.0, "url": "http:\/\/web.mta.info\/nyct\/service\/", "xcoord": -73.964688999751914, "ycoord": 40.683172001121186 }, "geometry": { "type": "Point", "coordinates": [ -73.964688999751914, 40.683172001121186 ] } },
{ "type": "Feature", "properties": { "line": "A-C-FS", "name": "Franklin Ave & Fulton St at NE corner", "objectid": 427.0, "url": "http:\/\/web.mta.info\/nyct\/service\/", "xcoord": -73.955589999837045, "ycoord": 40.681256001175477 }, "geometry": { "type": "Point", "coordinates": [ -73.955589999837045, 40.681256001175477 ] } },
{ "type": "Feature", "properties": { "line": "A-C", "name": "Nostrand Ave & Fulton St at SE corner", "objectid": 428.0, "url": "http:\/\/web.mta.info\/nyct\/service\/", "xcoord": -73.949413999803951, "ycoord": 40.680228000881179 }, "geometry": { "type": "Point", "coordinates": [ -73.949413999803951, 40.680228000881179 ] } },
{ "type": "Feature", "properties": { "line": "A-C", "name": "Nostrand Ave & Fulton St at SW corner", "objectid": 429.0, "url": "http:\/\/web.mta.info\/nyct\/service\/", "xcoord": -73.949634999769657, "ycoord": 40.680262001297919 }, "geometry": { "type": "Point", "coordinates": [ -73.949634999769657, 40.680262001297919 ] } },
{ "type": "Feature", "properties": { "line": "A-C", "name": "Kingston Ave & Fulton St at SE corner", "objectid": 430.0, "url": "http:\/\/web.mta.info\/nyct\/service\/", "xcoord": -73.941118999601315, "ycoord": 40.679804001073322 }, "geometry": { "type": "Point", "coordinates": [ -73.941118999601315, 40.679804001073322 ] } },
{ "type": "Feature", "properties": { "line": "A-C", "name": "Kingston Ave & Fulton St at SW corner", "objectid": 431.0, "url": "http:\/\/web.mta.info\/nyct\/service\/", "xcoord": -73.941361999588523, "ycoord": 40.679728001069059 }, "geometry": { "type": "Point", "coordinates": [ -73.941361999588523, 40.679728001069059 ] } },
{ "type": "Feature", "properties": { "line": "A-C", "name": "Stuyvesant Ave & Fulton St at NW corner", "objectid": 432.0, "url": "http:\/\/web.mta.info\/nyct\/service\/", "xcoord": -73.932021000046191, "ycoord": 40.679530001016616 }, "geometry": { "type": "Point", "coordinates": [ -73.932021000046191, 40.679530001016616 ] } },
{ "type": "Feature", "properties": { "line": "A-C", "name": "Stuyvesant Ave & Fulton St at SW corner", "objectid": 433.0, "url": "http:\/\/web.mta.info\/nyct\/service\/", "xcoord": -73.931986999672617, "ycoord": 40.67934600127338 }, "geometry": { "type": "Point", "coordinates": [ -73.931986999672617, 40.67934600127338 ] } },
{ "type": "Feature", "properties": { "line": "F-G", "name": "Smith St & Bergen St at SW corner", "objectid": 505.0, "url": "http:\/\/web.mta.info\/nyct\/service\/", "xcoord": -73.990628999952349, "ycoord": 40.686708000729602 }, "geometry": { "type": "Point", "coordinates": [ -73.990628999952349, 40.686708000729602 ] } },
{ "type": "Feature", "properties": { "line": "F-G", "name": "Smith St & Bergen St at NW corner", "objectid": 506.0, "url": "http:\/\/web.mta.info\/nyct\/service\/", "xcoord": -73.99052599991127, "ycoord": 40.686868000954149 }, "geometry": { "type": "Point", "coordinates": [ -73.99052599991127, 40.686868000954149 ] } },
{ "type": "Feature", "properties": { "line": "F-G", "name": "Smith St & Warren St at NW corner", "objectid": 507.0, "url": "http:\/\/web.mta.info\/nyct\/service\/", "xcoord": -73.991464999758946, "ycoord": 40.685579000839013 }, "geometry": { "type": "Point", "coordinates": [ -73.991464999758946, 40.685579000839013 ] } },
{ "type": "Feature", "properties": { "line": "F-G", "name": "Smith St & Warren St at NE corner", "objectid": 508.0, "url": "http:\/\/web.mta.info\/nyct\/service\/", "xcoord": -73.991131000286089, "ycoord": 40.685445000749795 }, "geometry": { "type": "Point", "coordinates": [ -73.991131000286089, 40.685445000749795 ] } },
{ "type": "Feature", "properties": { "line": "F-G", "name": "Smith St & President St at SE corner", "objectid": 509.0, "url": "http:\/\/web.mta.info\/nyct\/service\/", "xcoord": -73.994349999948966, "ycoord": 40.680806000648381 }, "geometry": { "type": "Point", "coordinates": [ -73.994349999948966, 40.680806000648381 ] } },
{ "type": "Feature", "properties": { "line": "F-G", "name": "Smith St & President St at NE corner", "objectid": 510.0, "url": "http:\/\/web.mta.info\/nyct\/service\/", "xcoord": -73.994246999740753, "ycoord": 40.680944001154067 }, "geometry": { "type": "Point", "coordinates": [ -73.994246999740753, 40.680944001154067 ] } },
{ "type": "Feature", "properties": { "line": "F-G", "name": "Smith St & President St at NW corner", "objectid": 511.0, "url": "http:\/\/web.mta.info\/nyct\/service\/", "xcoord": -73.99443399977244, "ycoord": 40.681115000894287 }, "geometry": { "type": "Point", "coordinates": [ -73.99443399977244, 40.681115000894287 ] } },
{ "type": "Feature", "properties": { "line": "R-2-3-4-5", "name": "Court Street & Montague Street at SE corner", "objectid": 556.0, "url": "http:\/\/web.mta.info\/nyct\/service\/", "xcoord": -73.990304000298607, "ycoord": 40.69359400114908 }, "geometry": { "type": "Point", "coordinates": [ -73.990304000298607, 40.69359400114908 ] } },
{ "type": "Feature", "properties": { "line": "R-2-3-4-5", "name": "Cadman Plaza West & Montague St at NE corner", "objectid": 557.0, "url": "http:\/\/web.mta.info\/nyct\/service\/", "xcoord": -73.990119000162252, "ycoord": 40.693838000972846 }, "geometry": { "type": "Point", "coordinates": [ -73.990119000162252, 40.693838000972846 ] } },
{ "type": "Feature", "properties": { "line": "R-2-3-4-5", "name": "Court St & Montague St at SW corner", "objectid": 558.0, "url": "http:\/\/web.mta.info\/nyct\/service\/", "xcoord": -73.99059899993928, "ycoord": 40.693569001273751 }, "geometry": { "type": "Point", "coordinates": [ -73.99059899993928, 40.693569001273751 ] } },
{ "type": "Feature", "properties": { "line": "R-2-3-4-5", "name": "Court St & Montague St at SW corner", "objectid": 559.0, "url": "http:\/\/web.mta.info\/nyct\/service\/", "xcoord": -73.990629999729734, "ycoord": 40.693728001046722 }, "geometry": { "type": "Point", "coordinates": [ -73.990629999729734, 40.693728001046722 ] } },
{ "type": "Feature", "properties": { "line": "2-3", "name": "Hoyt St & Fulton St at SW corner", "objectid": 560.0, "url": "http:\/\/web.mta.info\/nyct\/service\/", "xcoord": -73.985299000224856, "ycoord": 40.690388000917103 }, "geometry": { "type": "Point", "coordinates": [ -73.985299000224856, 40.690388000917103 ] } },
{ "type": "Feature", "properties": { "line": "2-3-4-5", "name": "Flatbush Ave & Livingston St at NW corner", "objectid": 561.0, "url": "http:\/\/web.mta.info\/nyct\/service\/", "xcoord": -73.980639000481872, "ycoord": 40.688235000675654 }, "geometry": { "type": "Point", "coordinates": [ -73.980639000481872, 40.688235000675654 ] } },
{ "type": "Feature", "properties": { "line": "2-3-4-5", "name": "Flatbush Ave & Livingston St at NW corner", "objectid": 562.0, "url": "http:\/\/web.mta.info\/nyct\/service\/", "xcoord": -73.98050599959079, "ycoord": 40.688053000661448 }, "geometry": { "type": "Point", "coordinates": [ -73.98050599959079, 40.688053000661448 ] } },
{ "type": "Feature", "properties": { "line": "B-D-N-Q-R-2-3-4-5", "name": "Ashland Pl & Hanson Pl at SE corner", "objectid": 563.0, "url": "http:\/\/web.mta.info\/nyct\/service\/", "xcoord": -73.977879999580452, "ycoord": 40.684976001123324 }, "geometry": { "type": "Point", "coordinates": [ -73.977879999580452, 40.684976001123324 ] } },
{ "type": "Feature", "properties": { "line": "2-3", "name": "Flatbush Ave & Bergen St at SE corner", "objectid": 564.0, "url": "http:\/\/web.mta.info\/nyct\/service\/", "xcoord": -73.974747999710033, "ycoord": 40.680695000563894 }, "geometry": { "type": "Point", "coordinates": [ -73.974747999710033, 40.680695000563894 ] } },
{ "type": "Feature", "properties": { "line": "2-3", "name": "Flatbush Ave & Bergen St at NE corner", "objectid": 565.0, "url": "http:\/\/web.mta.info\/nyct\/service\/", "xcoord": -73.974959999691038, "ycoord": 40.680911001027212 }, "geometry": { "type": "Point", "coordinates": [ -73.974959999691038, 40.680911001027212 ] } },
{ "type": "Feature", "properties": { "line": "2-3", "name": "Flatbush Ave & Plaza Street West at SW corner", "objectid": 566.0, "url": "http:\/\/web.mta.info\/nyct\/service\/", "xcoord": -73.970989999436824, "ycoord": 40.674950000892238 }, "geometry": { "type": "Point", "coordinates": [ -73.970989999436824, 40.674950000892238 ] } },
{ "type": "Feature", "properties": { "line": "2-3", "name": "Flatbush Ave & Plaza Street East at SE corner", "objectid": 567.0, "url": "http:\/\/web.mta.info\/nyct\/service\/", "xcoord": -73.970822000588541, "ycoord": 40.675110000625651 }, "geometry": { "type": "Point", "coordinates": [ -73.970822000588541, 40.675110000625651 ] } },
{ "type": "Feature", "properties": { "line": "2-3", "name": "Flatbush Ave & Plaza Street West at NW corner", "objectid": 568.0, "url": "http:\/\/web.mta.info\/nyct\/service\/", "xcoord": -73.97121599997601, "ycoord": 40.675142000611466 }, "geometry": { "type": "Point", "coordinates": [ -73.97121599997601, 40.675142000611466 ] } },
{ "type": "Feature", "properties": { "line": "2-3", "name": "Flatbush Ave & Plaza Street East at SE corner", "objectid": 569.0, "url": "http:\/\/web.mta.info\/nyct\/service\/", "xcoord": -73.970824999995145, "ycoord": 40.675286000723155 }, "geometry": { "type": "Point", "coordinates": [ -73.970824999995145, 40.675286000723155 ] } },
{ "type": "Feature", "properties": { "line": "2-3", "name": "Washington Ave & Eastern Pkwy at NW corner", "objectid": 570.0, "url": "http:\/\/web.mta.info\/nyct\/service\/", "xcoord": -73.964154000537945, "ycoord": 40.672122001057481 }, "geometry": { "type": "Point", "coordinates": [ -73.964154000537945, 40.672122001057481 ] } },
{ "type": "Feature", "properties": { "line": "2-3", "name": "Washington Ave & Eastern Pkwy at SW corner", "objectid": 571.0, "url": "http:\/\/web.mta.info\/nyct\/service\/", "xcoord": -73.964300999560635, "ycoord": 40.67178900108896 }, "geometry": { "type": "Point", "coordinates": [ -73.964300999560635, 40.67178900108896 ] } },
{ "type": "Feature", "properties": { "line": "FS-2-3-4-5", "name": "Franklin Ave & Eastern Pkwy at SE corner", "objectid": 572.0, "url": "http:\/\/web.mta.info\/nyct\/service\/", "xcoord": -73.957806000468878, "ycoord": 40.670485001093176 }, "geometry": { "type": "Point", "coordinates": [ -73.957806000468878, 40.670485001093176 ] } },
{ "type": "Feature", "properties": { "line": "FS-2-3-4-5", "name": "Franklin Ave & Eastern Pkwy at NE corner", "objectid": 573.0, "url": "http:\/\/web.mta.info\/nyct\/service\/", "xcoord": -73.957695999978682, "ycoord": 40.670732000906462 }, "geometry": { "type": "Point", "coordinates": [ -73.957695999978682, 40.670732000906462 ] } },
{ "type": "Feature", "properties": { "line": "FS-2-3-4-5", "name": "Franklin Ave & Eastern Pkwy at SE corner", "objectid": 574.0, "url": "http:\/\/web.mta.info\/nyct\/service\/", "xcoord": -73.957973000140015, "ycoord": 40.670337001264897 }, "geometry": { "type": "Point", "coordinates": [ -73.957973000140015, 40.670337001264897 ] } },
{ "type": "Feature", "properties": { "line": "FS-2-3-4-5", "name": "Franklin Ave & Eastern Pkwy at NE corner", "objectid": 575.0, "url": "http:\/\/web.mta.info\/nyct\/service\/", "xcoord": -73.957763999501395, "ycoord": 40.670922001330361 }, "geometry": { "type": "Point", "coordinates": [ -73.957763999501395, 40.670922001330361 ] } },
{ "type": "Feature", "properties": { "line": "3", "name": "Nostrand Ave & Eastern Pkwy at SE corner", "objectid": 576.0, "url": "http:\/\/web.mta.info\/nyct\/service\/", "xcoord": -73.950247000551826, "ycoord": 40.66971100134063 }, "geometry": { "type": "Point", "coordinates": [ -73.950247000551826, 40.66971100134063 ] } },
{ "type": "Feature", "properties": { "line": "3", "name": "Nostrand Ave & Eastern Pkwy at SW corner", "objectid": 577.0, "url": "http:\/\/web.mta.info\/nyct\/service\/", "xcoord": -73.950797999520859, "ycoord": 40.669741001251154 }, "geometry": { "type": "Point", "coordinates": [ -73.950797999520859, 40.669741001251154 ] } },
{ "type": "Feature", "properties": { "line": "3", "name": "Kingston Ave & Eastern Pkwy at SE corner", "objectid": 578.0, "url": "http:\/\/web.mta.info\/nyct\/service\/", "xcoord": -73.941948000109534, "ycoord": 40.669261001095848 }, "geometry": { "type": "Point", "coordinates": [ -73.941948000109534, 40.669261001095848 ] } },
{ "type": "Feature", "properties": { "line": "3", "name": "Kingston Ave & Eastern Pkwy at SW corner", "objectid": 579.0, "url": "http:\/\/web.mta.info\/nyct\/service\/", "xcoord": -73.942462999937277, "ycoord": 40.66928900110269 }, "geometry": { "type": "Point", "coordinates": [ -73.942462999937277, 40.66928900110269 ] } },
{ "type": "Feature", "properties": { "line": "A-C-J-Z-2-3-4-5", "name": "Cadman Plaza West & Cranberry St at NW corner", "objectid": 784.0, "url": "http:\/\/web.mta.info\/nyct\/service\/", "xcoord": -73.991413000259186, "ycoord": 40.699405000897769 }, "geometry": { "type": "Point", "coordinates": [ -73.991413000259186, 40.699405000897769 ] } },
{ "type": "Feature", "properties": { "line": "A-C-F-R", "name": "Jay St & Willoughby St at NW corner", "objectid": 785.0, "url": "http:\/\/web.mta.info\/nyct\/service\/", "xcoord": -73.987445999809978, "ycoord": 40.692335000549761 }, "geometry": { "type": "Point", "coordinates": [ -73.987445999809978, 40.692335000549761 ] } },
{ "type": "Feature", "properties": { "line": "A-C-F-R", "name": "Jay St & Willoughby St at NW corner", "objectid": 786.0, "url": "http:\/\/web.mta.info\/nyct\/service\/", "xcoord": -73.987443000424776, "ycoord": 40.692393000461891 }, "geometry": { "type": "Point", "coordinates": [ -73.987443000424776, 40.692393000461891 ] } },
{ "type": "Feature", "properties": { "line": "A-C-F-R", "name": "Jay St & Willoughby St at NW corner", "objectid": 787.0, "url": "http:\/\/web.mta.info\/nyct\/service\/", "xcoord": -73.987493999576103, "ycoord": 40.692336000842694 }, "geometry": { "type": "Point", "coordinates": [ -73.987493999576103, 40.692336000842694 ] } },
{ "type": "Feature", "properties": { "line": "A-C-F-R", "name": "Jay St & Willoughby St at NW corner", "objectid": 788.0, "url": "http:\/\/web.mta.info\/nyct\/service\/", "xcoord": -73.987491000232623, "ycoord": 40.692394000756011 }, "geometry": { "type": "Point", "coordinates": [ -73.987491000232623, 40.692394000756011 ] } },
{ "type": "Feature", "properties": { "line": "A-C-G", "name": "Hoyt St & Schermerhorn St at NE corner", "objectid": 789.0, "url": "http:\/\/web.mta.info\/nyct\/service\/", "xcoord": -73.985940999470785, "ycoord": 40.689085000617538 }, "geometry": { "type": "Point", "coordinates": [ -73.985940999470785, 40.689085000617538 ] } },
{ "type": "Feature", "properties": { "line": "A-C-G", "name": "Bond St & Schermerhorn St at NW corner", "objectid": 790.0, "url": "http:\/\/web.mta.info\/nyct\/service\/", "xcoord": -73.984216000163926, "ycoord": 40.688396001275585 }, "geometry": { "type": "Point", "coordinates": [ -73.984216000163926, 40.688396001275585 ] } },
{ "type": "Feature", "properties": { "line": "C", "name": "Oxford St & Fulton Ave at NE corner", "objectid": 791.0, "url": "http:\/\/web.mta.info\/nyct\/service\/", "xcoord": -73.972759999514949, "ycoord": 40.68578900079028 }, "geometry": { "type": "Point", "coordinates": [ -73.972759999514949, 40.68578900079028 ] } },
{ "type": "Feature", "properties": { "line": "C", "name": "Oxford St & Fulton Ave at SW corner", "objectid": 792.0, "url": "http:\/\/web.mta.info\/nyct\/service\/", "xcoord": -73.972899999856509, "ycoord": 40.685559001209157 }, "geometry": { "type": "Point", "coordinates": [ -73.972899999856509, 40.685559001209157 ] } },
{ "type": "Feature", "properties": { "line": "C", "name": "Oxford St & Fulton Ave at NE corner", "objectid": 793.0, "url": "http:\/\/web.mta.info\/nyct\/service\/", "xcoord": -73.973020999898154, "ycoord": 40.685969001131355 }, "geometry": { "type": "Point", "coordinates": [ -73.973020999898154, 40.685969001131355 ] } },
{ "type": "Feature", "properties": { "line": "C", "name": "Oxford St & Fulton Ave at SW corner", "objectid": 794.0, "url": "http:\/\/web.mta.info\/nyct\/service\/", "xcoord": -73.973525999755367, "ycoord": 40.685700000791719 }, "geometry": { "type": "Point", "coordinates": [ -73.973525999755367, 40.685700000791719 ] } },
{ "type": "Feature", "properties": { "line": "C", "name": "Oxford St & Fulton Ave at NE corner", "objectid": 795.0, "url": "http:\/\/web.mta.info\/nyct\/service\/", "xcoord": -73.97330800027531, "ycoord": 40.686077000933501 }, "geometry": { "type": "Point", "coordinates": [ -73.97330800027531, 40.686077000933501 ] } },
{ "type": "Feature", "properties": { "line": "C", "name": "Portland Ave & Fulton Ave at SE corner", "objectid": 796.0, "url": "http:\/\/web.mta.info\/nyct\/service\/", "xcoord": -73.974277999711745, "ycoord": 40.686041000480458 }, "geometry": { "type": "Point", "coordinates": [ -73.974277999711745, 40.686041000480458 ] } },
{ "type": "Feature", "properties": { "line": "C", "name": "Portland Ave & Fulton Ave at NE corner", "objectid": 797.0, "url": "http:\/\/web.mta.info\/nyct\/service\/", "xcoord": -73.974347000320478, "ycoord": 40.68640900089698 }, "geometry": { "type": "Point", "coordinates": [ -73.974347000320478, 40.68640900089698 ] } },
{ "type": "Feature", "properties": { "line": "C", "name": "Portland Ave & Fulton Ave at SW corner", "objectid": 798.0, "url": "http:\/\/web.mta.info\/nyct\/service\/", "xcoord": -73.97451699946798, "ycoord": 40.686119001221137 }, "geometry": { "type": "Point", "coordinates": [ -73.97451699946798, 40.686119001221137 ] } },
{ "type": "Feature", "properties": { "line": "C", "name": "Portland Ave & Fulton Ave at NW corner", "objectid": 799.0, "url": "http:\/\/web.mta.info\/nyct\/service\/", "xcoord": -73.974605999411921, "ycoord": 40.686553000949395 }, "geometry": { "type": "Point", "coordinates": [ -73.974605999411921, 40.686553000949395 ] } },
{ "type": "Feature", "properties": { "line": "C", "name": "Clinton Ave & Fulton Ave at NE corner", "objectid": 800.0, "url": "http:\/\/web.mta.info\/nyct\/service\/", "xcoord": -73.966796999839119, "ycoord": 40.683653000700438 }, "geometry": { "type": "Point", "coordinates": [ -73.966796999839119, 40.683653000700438 ] } },
{ "type": "Feature", "properties": { "line": "C", "name": "Clinton Ave & Fulton Ave at NW corner", "objectid": 801.0, "url": "http:\/\/web.mta.info\/nyct\/service\/", "xcoord": -73.967069000219738, "ycoord": 40.683695000492612 }, "geometry": { "type": "Point", "coordinates": [ -73.967069000219738, 40.683695000492612 ] } },
{ "type": "Feature", "properties": { "line": "A-C", "name": "Nostrand Ave & Fulton St at NE corner", "objectid": 802.0, "url": "http:\/\/web.mta.info\/nyct\/service\/", "xcoord": -73.949514999825908, "ycoord": 40.680547001154324 }, "geometry": { "type": "Point", "coordinates": [ -73.949514999825908, 40.680547001154324 ] } },
{ "type": "Feature", "properties": { "line": "A-C", "name": "Nostrand Ave & Fulton St at NW corner", "objectid": 803.0, "url": "http:\/\/web.mta.info\/nyct\/service\/", "xcoord": -73.949752999644517, "ycoord": 40.680572000954378 }, "geometry": { "type": "Point", "coordinates": [ -73.949752999644517, 40.680572000954378 ] } },
{ "type": "Feature", "properties": { "line": "A-C", "name": "Throop Ave & Fulton St at NE corner", "objectid": 804.0, "url": "http:\/\/web.mta.info\/nyct\/service\/", "xcoord": -73.940246999635235, "ycoord": 40.680010000805453 }, "geometry": { "type": "Point", "coordinates": [ -73.940246999635235, 40.680010000805453 ] } },
{ "type": "Feature", "properties": { "line": "A-C", "name": "Throop Ave & Fulton St at NW corner", "objectid": 805.0, "url": "http:\/\/web.mta.info\/nyct\/service\/", "xcoord": -73.940483000245777, "ycoord": 40.680057001206364 }, "geometry": { "type": "Point", "coordinates": [ -73.940483000245777, 40.680057001206364 ] } },
{ "type": "Feature", "properties": { "line": "A-C", "name": "Utica Ave & Fulton St at SW corner", "objectid": 806.0, "url": "http:\/\/web.mta.info\/nyct\/service\/", "xcoord": -73.930044000118031, "ycoord": 40.679095001156526 }, "geometry": { "type": "Point", "coordinates": [ -73.930044000118031, 40.679095001156526 ] } },
{ "type": "Feature", "properties": { "line": "A-C", "name": "Utica Ave & Fulton St at NW corner", "objectid": 807.0, "url": "http:\/\/web.mta.info\/nyct\/service\/", "xcoord": -73.929725000406336, "ycoord": 40.679487000732564 }, "geometry": { "type": "Point", "coordinates": [ -73.929725000406336, 40.679487000732564 ] } },
{ "type": "Feature", "properties": { "line": "F", "name": "Jay St & York St at SW corner", "objectid": 1029.0, "url": "http:\/\/web.mta.info\/nyct\/service\/", "xcoord": -73.986655000044436, "ycoord": 40.701380000856666 }, "geometry": { "type": "Point", "coordinates": [ -73.986655000044436, 40.701380000856666 ] } },
{ "type": "Feature", "properties": { "line": "F-G", "name": "Smith St & Bergen St at SE corner", "objectid": 1030.0, "url": "http:\/\/web.mta.info\/nyct\/service\/", "xcoord": -73.990362000147911, "ycoord": 40.686584000465722 }, "geometry": { "type": "Point", "coordinates": [ -73.990362000147911, 40.686584000465722 ] } },
{ "type": "Feature", "properties": { "line": "F-G", "name": "Smith St & Bergen St at NE corner", "objectid": 1031.0, "url": "http:\/\/web.mta.info\/nyct\/service\/", "xcoord": -73.990268999515919, "ycoord": 40.686727000503545 }, "geometry": { "type": "Point", "coordinates": [ -73.990268999515919, 40.686727000503545 ] } },
{ "type": "Feature", "properties": { "line": "F-G", "name": "Smith St & 2nd St at NW corner", "objectid": 1032.0, "url": "http:\/\/web.mta.info\/nyct\/service\/", "xcoord": -73.995698000023268, "ycoord": 40.679299000473407 }, "geometry": { "type": "Point", "coordinates": [ -73.995698000023268, 40.679299000473407 ] } },
{ "type": "Feature", "properties": { "line": "F-G", "name": "Smith St & 2nd St at SE corner", "objectid": 1033.0, "url": "http:\/\/web.mta.info\/nyct\/service\/", "xcoord": -73.995287999911028, "ycoord": 40.679344001129252 }, "geometry": { "type": "Point", "coordinates": [ -73.995287999911028, 40.679344001129252 ] } },
{ "type": "Feature", "properties": { "line": "F-G-R", "name": "Smith St & 9th St at NE corner", "objectid": 1034.0, "url": "http:\/\/web.mta.info\/nyct\/service\/", "xcoord": -73.997504999802374, "ycoord": 40.674725001246721 }, "geometry": { "type": "Point", "coordinates": [ -73.997504999802374, 40.674725001246721 ] } },
{ "type": "Feature", "properties": { "line": "F", "name": "4th Ave & 10th St at NW corner", "objectid": 1035.0, "url": "http:\/\/web.mta.info\/nyct\/service\/", "xcoord": -73.989441999904187, "ycoord": 40.669953001175578 }, "geometry": { "type": "Point", "coordinates": [ -73.989441999904187, 40.669953001175578 ] } },
{ "type": "Feature", "properties": { "line": "F", "name": "4th Ave & 10th St at NW corner", "objectid": 1036.0, "url": "http:\/\/web.mta.info\/nyct\/service\/", "xcoord": -73.989247999826674, "ycoord": 40.670010001144014 }, "geometry": { "type": "Point", "coordinates": [ -73.989247999826674, 40.670010001144014 ] } },
{ "type": "Feature", "properties": { "line": "A-FS", "name": "Franklin Ave & Fulton St at SW corner", "objectid": 1069.0, "url": "http:\/\/web.mta.info\/nyct\/service\/", "xcoord": -73.955839999803928, "ycoord": 40.681051000752149 }, "geometry": { "type": "Point", "coordinates": [ -73.955839999803928, 40.681051000752149 ] } },
{ "type": "Feature", "properties": { "line": "FS", "name": "Franklin Ave & Park Pl at NW corner", "objectid": 1070.0, "url": "http:\/\/web.mta.info\/nyct\/service\/", "xcoord": -73.957932000209382, "ycoord": 40.674516001194164 }, "geometry": { "type": "Point", "coordinates": [ -73.957932000209382, 40.674516001194164 ] } },
{ "type": "Feature", "properties": { "line": "FS", "name": "Franklin Ave & Park Pl at NW corner", "objectid": 1071.0, "url": "http:\/\/web.mta.info\/nyct\/service\/", "xcoord": -73.957590999609394, "ycoord": 40.675208001034932 }, "geometry": { "type": "Point", "coordinates": [ -73.957590999609394, 40.675208001034932 ] } },
{ "type": "Feature", "properties": { "line": "FS-2-3-4-5", "name": "Franklin Ave & Eastern Pkwy at SW corner", "objectid": 1072.0, "url": "http:\/\/web.mta.info\/nyct\/service\/", "xcoord": -73.959092999767748, "ycoord": 40.670588001304374 }, "geometry": { "type": "Point", "coordinates": [ -73.959092999767748, 40.670588001304374 ] } },
{ "type": "Feature", "properties": { "line": "G", "name": "Union Ave & Flushing Ave at NE corner", "objectid": 1109.0, "url": "http:\/\/web.mta.info\/nyct\/service\/", "xcoord": -73.9498950000837, "ycoord": 40.69998500074923 }, "geometry": { "type": "Point", "coordinates": [ -73.9498950000837, 40.69998500074923 ] } },
{ "type": "Feature", "properties": { "line": "G", "name": "Marcy Ave & Myrtle Ave at NE corner", "objectid": 1110.0, "url": "http:\/\/web.mta.info\/nyct\/service\/", "xcoord": -73.94895999970872, "ycoord": 40.695500000756802 }, "geometry": { "type": "Point", "coordinates": [ -73.94895999970872, 40.695500000756802 ] } },
{ "type": "Feature", "properties": { "line": "G", "name": "Bedford Ave & Lafayette Ave at NE corner", "objectid": 1111.0, "url": "http:\/\/web.mta.info\/nyct\/service\/", "xcoord": -73.954997999700581, "ycoord": 40.689543001218773 }, "geometry": { "type": "Point", "coordinates": [ -73.954997999700581, 40.689543001218773 ] } },
{ "type": "Feature", "properties": { "line": "G", "name": "Bedford Ave & Lafayette Ave at SE corner", "objectid": 1112.0, "url": "http:\/\/web.mta.info\/nyct\/service\/", "xcoord": -73.954956999971756, "ycoord": 40.689367000544678 }, "geometry": { "type": "Point", "coordinates": [ -73.954956999971756, 40.689367000544678 ] } },
{ "type": "Feature", "properties": { "line": "G", "name": "Bedford Ave & Lafayette Ave at NW corner", "objectid": 1113.0, "url": "http:\/\/web.mta.info\/nyct\/service\/", "xcoord": -73.955352999428001, "ycoord": 40.689500001301035 }, "geometry": { "type": "Point", "coordinates": [ -73.955352999428001, 40.689500001301035 ] } },
{ "type": "Feature", "properties": { "line": "G", "name": "Bedford Ave & Lafayette Ave at SW corner", "objectid": 1114.0, "url": "http:\/\/web.mta.info\/nyct\/service\/", "xcoord": -73.955317999815705, "ycoord": 40.689330000502032 }, "geometry": { "type": "Point", "coordinates": [ -73.955317999815705, 40.689330000502032 ] } },
{ "type": "Feature", "properties": { "line": "2-3", "name": "Bridge St & Fulton St at NE corner", "objectid": 1195.0, "url": "http:\/\/web.mta.info\/nyct\/service\/", "xcoord": -73.985250000183797, "ycoord": 40.690931000483978 }, "geometry": { "type": "Point", "coordinates": [ -73.985250000183797, 40.690931000483978 ] } },
{ "type": "Feature", "properties": { "line": "2-3", "name": "Bridge St & Fulton St at NW corner", "objectid": 1196.0, "url": "http:\/\/web.mta.info\/nyct\/service\/", "xcoord": -73.985448000481327, "ycoord": 40.690972000839878 }, "geometry": { "type": "Point", "coordinates": [ -73.985448000481327, 40.690972000839878 ] } },
{ "type": "Feature", "properties": { "line": "2-3", "name": "Elm Pl & Fulton St at SW corner", "objectid": 1197.0, "url": "http:\/\/web.mta.info\/nyct\/service\/", "xcoord": -73.984248000260948, "ycoord": 40.690025000956666 }, "geometry": { "type": "Point", "coordinates": [ -73.984248000260948, 40.690025000956666 ] } },
{ "type": "Feature", "properties": { "line": "2-3-4-5", "name": "Flatbush Ave & Livingston St at NE corner", "objectid": 1198.0, "url": "http:\/\/web.mta.info\/nyct\/service\/", "xcoord": -73.980356000120082, "ycoord": 40.68824300060318 }, "geometry": { "type": "Point", "coordinates": [ -73.980356000120082, 40.68824300060318 ] } },
{ "type": "Feature", "properties": { "line": "2-3-4-5", "name": "Flatbush Ave & Livingston St at NE corner", "objectid": 1199.0, "url": "http:\/\/web.mta.info\/nyct\/service\/", "xcoord": -73.980242999854354, "ycoord": 40.688085000580394 }, "geometry": { "type": "Point", "coordinates": [ -73.980242999854354, 40.688085000580394 ] } },
{ "type": "Feature", "properties": { "line": "2-3", "name": "Flatbush Ave & Bergen St at SW corner", "objectid": 1200.0, "url": "http:\/\/web.mta.info\/nyct\/service\/", "xcoord": -73.975534000188659, "ycoord": 40.680832000820992 }, "geometry": { "type": "Point", "coordinates": [ -73.975534000188659, 40.680832000820992 ] } },
{ "type": "Feature", "properties": { "line": "2-3", "name": "Flatbush Ave & Bergen St at SW corner", "objectid": 1201.0, "url": "http:\/\/web.mta.info\/nyct\/service\/", "xcoord": -73.975240999969017, "ycoord": 40.680709000836693 }, "geometry": { "type": "Point", "coordinates": [ -73.975240999969017, 40.680709000836693 ] } },
{ "type": "Feature", "properties": { "line": "2-3", "name": "Flatbush Ave & Bergen St at NW corner", "objectid": 1202.0, "url": "http:\/\/web.mta.info\/nyct\/service\/", "xcoord": -73.975448000272024, "ycoord": 40.680951000773391 }, "geometry": { "type": "Point", "coordinates": [ -73.975448000272024, 40.680951000773391 ] } },
{ "type": "Feature", "properties": { "line": "3-4", "name": "Schenectady Ave & Eastern Pkwy at NE corner", "objectid": 1204.0, "url": "http:\/\/web.mta.info\/nyct\/service\/", "xcoord": -73.934212999707171, "ycoord": 40.669102000538764 }, "geometry": { "type": "Point", "coordinates": [ -73.934212999707171, 40.669102000538764 ] } },
{ "type": "Feature", "properties": { "line": "R-2-3-4-5", "name": "Court St & Joralemon St at SW corner", "objectid": 1300.0, "url": "http:\/\/web.mta.info\/nyct\/service\/", "xcoord": -73.991192999802891, "ycoord": 40.692489001019602 }, "geometry": { "type": "Point", "coordinates": [ -73.991192999802891, 40.692489001019602 ] } },
{ "type": "Feature", "properties": { "line": "J-M", "name": "Lorimer St & Broadway at NW corner", "objectid": 1343.0, "url": "http:\/\/web.mta.info\/nyct\/service\/", "xcoord": -73.946536000184196, "ycoord": 40.703454000791794 }, "geometry": { "type": "Point", "coordinates": [ -73.946536000184196, 40.703454000791794 ] } },
{ "type": "Feature", "properties": { "line": "J-M", "name": "Lorimer St & Broadway at SW corner", "objectid": 1344.0, "url": "http:\/\/web.mta.info\/nyct\/service\/", "xcoord": -73.946612999670094, "ycoord": 40.703321001212679 }, "geometry": { "type": "Point", "coordinates": [ -73.946612999670094, 40.703321001212679 ] } },
{ "type": "Feature", "properties": { "line": "A-C-F-R", "name": "Jay St & Fulton St at NE corner", "objectid": 1358.0, "url": "http:\/\/web.mta.info\/nyct\/service\/", "xcoord": -73.987208000442052, "ycoord": 40.691559000473795 }, "geometry": { "type": "Point", "coordinates": [ -73.987208000442052, 40.691559000473795 ] } },
{ "type": "Feature", "properties": { "line": "A-C-F-R", "name": "Jay St & Fulton St at NW corner", "objectid": 1359.0, "url": "http:\/\/web.mta.info\/nyct\/service\/", "xcoord": -73.9874610000183, "ycoord": 40.691700000934667 }, "geometry": { "type": "Point", "coordinates": [ -73.9874610000183, 40.691700000934667 ] } },
{ "type": "Feature", "properties": { "line": "C", "name": "Clinton Ave & Fulton Ave at SE corner (exit only)", "objectid": 1373.0, "url": "http:\/\/web.mta.info\/nyct\/service\/", "xcoord": -73.966740999688597, "ycoord": 40.683317000945657 }, "geometry": { "type": "Point", "coordinates": [ -73.966740999688597, 40.683317000945657 ] } },
{ "type": "Feature", "properties": { "line": "2-3", "name": "Duffield St & Fulton St at NE corner", "objectid": 1462.0, "url": "http:\/\/web.mta.info\/nyct\/service\/", "xcoord": -73.984323000151534, "ycoord": 40.690433001317736 }, "geometry": { "type": "Point", "coordinates": [ -73.984323000151534, 40.690433001317736 ] } },
{ "type": "Feature", "properties": { "line": "A-C-F-R", "name": "Lawrence St & Willoughby St at SE corner", "objectid": 1578.0, "url": "http:\/\/web.mta.info\/nyct\/service\/", "xcoord": -73.986106999529525, "ycoord": 40.692114001287543 }, "geometry": { "type": "Point", "coordinates": [ -73.986106999529525, 40.692114001287543 ] } },
{ "type": "Feature", "properties": { "line": "A-C-F-R", "name": "Lawrence St & Willoughby St at SE corner", "objectid": 1579.0, "url": "http:\/\/web.mta.info\/nyct\/service\/", "xcoord": -73.986114000565834, "ycoord": 40.69225800046344 }, "geometry": { "type": "Point", "coordinates": [ -73.986114000565834, 40.69225800046344 ] } },
{ "type": "Feature", "properties": { "line": "A-C-F-R", "name": "Lawrence St & Willoughby St at NE corner", "objectid": 1580.0, "url": "http:\/\/web.mta.info\/nyct\/service\/", "xcoord": -73.986191000180199, "ycoord": 40.692052001171653 }, "geometry": { "type": "Point", "coordinates": [ -73.986191000180199, 40.692052001171653 ] } },
{ "type": "Feature", "properties": { "line": "A-C-F-R", "name": "Lawrence St & Willoughby St at NE corner", "objectid": 1581.0, "url": "http:\/\/web.mta.info\/nyct\/service\/", "xcoord": -73.986180999898991, "ycoord": 40.692359001058456 }, "geometry": { "type": "Point", "coordinates": [ -73.986180999898991, 40.692359001058456 ] } },
{ "type": "Feature", "properties": { "line": "B-Q-R", "name": "Flatbush Ave & De Kalb Ave at SE corner", "objectid": 1582.0, "url": "http:\/\/web.mta.info\/nyct\/service\/", "xcoord": -73.981163999755594, "ycoord": 40.689804000901425 }, "geometry": { "type": "Point", "coordinates": [ -73.981163999755594, 40.689804000901425 ] } },
{ "type": "Feature", "properties": { "line": "B-Q-R", "name": "Flatbush Ave & De Kalb Ave at SW corner", "objectid": 1583.0, "url": "http:\/\/web.mta.info\/nyct\/service\/", "xcoord": -73.981650999562547, "ycoord": 40.689810000456937 }, "geometry": { "type": "Point", "coordinates": [ -73.981650999562547, 40.689810000456937 ] } },
{ "type": "Feature", "properties": { "line": "B-Q-R", "name": "Flatbush Ave & De Kalb Ave at SE corner", "objectid": 1584.0, "url": "http:\/\/web.mta.info\/nyct\/service\/", "xcoord": -73.981081999849351, "ycoord": 40.689817000767917 }, "geometry": { "type": "Point", "coordinates": [ -73.981081999849351, 40.689817000767917 ] } },
{ "type": "Feature", "properties": { "line": "B-Q-R", "name": "Flatbush Ave & De Kalb Ave at SE corner", "objectid": 1585.0, "url": "http:\/\/web.mta.info\/nyct\/service\/", "xcoord": -73.981156000408461, "ycoord": 40.689740001013988 }, "geometry": { "type": "Point", "coordinates": [ -73.981156000408461, 40.689740001013988 ] } },
{ "type": "Feature", "properties": { "line": "B-Q-D-N-R-2-3-4-5", "name": "4th Ave & Pacific St at NE corner", "objectid": 1586.0, "url": "http:\/\/web.mta.info\/nyct\/service\/", "xcoord": -73.978487000167362, "ycoord": 40.68380500060232 }, "geometry": { "type": "Point", "coordinates": [ -73.978487000167362, 40.68380500060232 ] } },
{ "type": "Feature", "properties": { "line": "B-Q-D-N-R-2-3-4-5", "name": "4th Ave & Pacific St at NW corner", "objectid": 1587.0, "url": "http:\/\/web.mta.info\/nyct\/service\/", "xcoord": -73.978878999602614, "ycoord": 40.683905000552265 }, "geometry": { "type": "Point", "coordinates": [ -73.978878999602614, 40.683905000552265 ] } },
{ "type": "Feature", "properties": { "line": "B-Q-D-N-R-2-3-4-5", "name": "4th Ave & Pacific St at NE corner", "objectid": 1588.0, "url": "http:\/\/web.mta.info\/nyct\/service\/", "xcoord": -73.978412000472687, "ycoord": 40.68392800126307 }, "geometry": { "type": "Point", "coordinates": [ -73.978412000472687, 40.68392800126307 ] } },
{ "type": "Feature", "properties": { "line": "R", "name": "4th Ave & Union St at SE corner", "objectid": 1589.0, "url": "http:\/\/web.mta.info\/nyct\/service\/", "xcoord": -73.983133000439651, "ycoord": 40.677001001182532 }, "geometry": { "type": "Point", "coordinates": [ -73.983133000439651, 40.677001001182532 ] } },
{ "type": "Feature", "properties": { "line": "R", "name": "4th Ave & Union St at SW corner", "objectid": 1590.0, "url": "http:\/\/web.mta.info\/nyct\/service\/", "xcoord": -73.983327000288398, "ycoord": 40.677279001228015 }, "geometry": { "type": "Point", "coordinates": [ -73.983327000288398, 40.677279001228015 ] } },
{ "type": "Feature", "properties": { "line": "R", "name": "4th Ave & Union St at SE corner", "objectid": 1591.0, "url": "http:\/\/web.mta.info\/nyct\/service\/", "xcoord": -73.983020000101206, "ycoord": 40.677171000832296 }, "geometry": { "type": "Point", "coordinates": [ -73.983020000101206, 40.677171000832296 ] } },
{ "type": "Feature", "properties": { "line": "F-G-R", "name": "4th Ave & 9th St at NE corner", "objectid": 1592.0, "url": "http:\/\/web.mta.info\/nyct\/service\/", "xcoord": -73.988479999739695, "ycoord": 40.670387000524279 }, "geometry": { "type": "Point", "coordinates": [ -73.988479999739695, 40.670387000524279 ] } },
{ "type": "Feature", "properties": { "line": "B-Q", "name": "Flatbush Ave & Park Pl at SW corner", "objectid": 1620.0, "url": "http:\/\/web.mta.info\/nyct\/service\/", "xcoord": -73.972788000307375, "ycoord": 40.67736500045114 }, "geometry": { "type": "Point", "coordinates": [ -73.972788000307375, 40.67736500045114 ] } },
{ "type": "Feature", "properties": { "line": "B-Q", "name": "Carlton Ave & Park Pl at SE corner", "objectid": 1621.0, "url": "http:\/\/web.mta.info\/nyct\/service\/", "xcoord": -73.97221200054895, "ycoord": 40.677324001027337 }, "geometry": { "type": "Point", "coordinates": [ -73.97221200054895, 40.677324001027337 ] } },
{ "type": "Feature", "properties": { "line": "2-3", "name": "Clark St & Henry St at NW corner", "objectid": 1638.0, "url": "http:\/\/web.mta.info\/nyct\/service\/", "xcoord": -73.993274999777881, "ycoord": 40.697590000911092 }, "geometry": { "type": "Point", "coordinates": [ -73.993274999777881, 40.697590000911092 ] } },
{ "type": "Feature", "properties": { "line": "2-3", "name": "Clark St & Henry St at NW corner", "objectid": 1639.0, "url": "http:\/\/web.mta.info\/nyct\/service\/", "xcoord": -73.993060000266397, "ycoord": 40.697649000523789 }, "geometry": { "type": "Point", "coordinates": [ -73.993060000266397, 40.697649000523789 ] } },
{ "type": "Feature", "properties": { "line": "R-2-3-4-5", "name": "Court St & Joralemon St at SE corner", "objectid": 1708.0, "url": "http:\/\/web.mta.info\/nyct\/service\/", "xcoord": -73.990560000233316, "ycoord": 40.692340000590917 }, "geometry": { "type": "Point", "coordinates": [ -73.990560000233316, 40.692340000590917 ] } },
{ "type": "Feature", "properties": { "line": "R-2-3-4-5", "name": "Court St & Joralemon St at SE corner", "objectid": 1709.0, "url": "http:\/\/web.mta.info\/nyct\/service\/", "xcoord": -73.990301000217514, "ycoord": 40.692299001211758 }, "geometry": { "type": "Point", "coordinates": [ -73.990301000217514, 40.692299001211758 ] } },
{ "type": "Feature", "properties": { "line": "R-2-3-4-5", "name": "Court St & Joralemon St at NE corner", "objectid": 1710.0, "url": "http:\/\/web.mta.info\/nyct\/service\/", "xcoord": -73.990098999630774, "ycoord": 40.69254800105783 }, "geometry": { "type": "Point", "coordinates": [ -73.990098999630774, 40.69254800105783 ] } },
{ "type": "Feature", "properties": { "line": "R-2-3-4-5", "name": "Court St & Joralemon St at NE corner", "objectid": 1711.0, "url": "http:\/\/web.mta.info\/nyct\/service\/", "xcoord": -73.990571999464308, "ycoord": 40.692588001041017 }, "geometry": { "type": "Point", "coordinates": [ -73.990571999464308, 40.692588001041017 ] } },
{ "type": "Feature", "properties": { "line": "R-2-3-4-5", "name": "Clinton St & Montague St at NW corner", "objectid": 1890.0, "url": "http:\/\/web.mta.info\/nyct\/service\/", "xcoord": -73.992618999573338, "ycoord": 40.69441600067524 }, "geometry": { "type": "Point", "coordinates": [ -73.992618999573338, 40.69441600067524 ] } },
{ "type": "Feature", "properties": { "line": "R-2-3-4-5", "name": "Clinton St & Montague St at SW corner", "objectid": 1891.0, "url": "http:\/\/web.mta.info\/nyct\/service\/", "xcoord": -73.992635000269573, "ycoord": 40.694232000832599 }, "geometry": { "type": "Point", "coordinates": [ -73.992635000269573, 40.694232000832599 ] } },
{ "type": "Feature", "properties": { "line": "R-2-3-4-5", "name": "Clinton St & Montague St at NW corner", "objectid": 1892.0, "url": "http:\/\/web.mta.info\/nyct\/service\/", "xcoord": -73.992829999905112, "ycoord": 40.694475001199649 }, "geometry": { "type": "Point", "coordinates": [ -73.992829999905112, 40.694475001199649 ] } },
{ "type": "Feature", "properties": { "line": "A-C-F-R", "name": "Bridge St & Willoughby St at SE corner", "objectid": 1893.0, "url": "http:\/\/web.mta.info\/nyct\/service\/", "xcoord": -73.985190000384009, "ycoord": 40.691980000460049 }, "geometry": { "type": "Point", "coordinates": [ -73.985190000384009, 40.691980000460049 ] } },
{ "type": "Feature", "properties": { "line": "A-C-F-R", "name": "Bridge St & Willoughby St at NE corner", "objectid": 1894.0, "url": "http:\/\/web.mta.info\/nyct\/service\/", "xcoord": -73.985171999938771, "ycoord": 40.692315000683841 }, "geometry": { "type": "Point", "coordinates": [ -73.985171999938771, 40.692315000683841 ] } },
{ "type": "Feature", "properties": { "line": "A-C-F-R", "name": "Bridge St & Willoughby St at SW corner", "objectid": 1895.0, "url": "http:\/\/web.mta.info\/nyct\/service\/", "xcoord": -73.985394999459245, "ycoord": 40.692031001098265 }, "geometry": { "type": "Point", "coordinates": [ -73.985394999459245, 40.692031001098265 ] } },
{ "type": "Feature", "properties": { "line": "B-Q-R", "name": "Flatbush Ave & Fleet St at NW corner", "objectid": 1896.0, "url": "http:\/\/web.mta.info\/nyct\/service\/", "xcoord": -73.98256499971987, "ycoord": 40.691540001343185 }, "geometry": { "type": "Point", "coordinates": [ -73.98256499971987, 40.691540001343185 ] } },
{ "type": "Feature", "properties": { "line": "B-Q-R", "name": "Flatbush Ave & Fleet St at NE corner", "objectid": 1897.0, "url": "http:\/\/web.mta.info\/nyct\/service\/", "xcoord": -73.982047999567001, "ycoord": 40.691562000635898 }, "geometry": { "type": "Point", "coordinates": [ -73.982047999567001, 40.691562000635898 ] } },
{ "type": "Feature", "properties": { "line": "R", "name": "4th Ave & Union St at SW corner", "objectid": 1898.0, "url": "http:\/\/web.mta.info\/nyct\/service\/", "xcoord": -73.983416000247061, "ycoord": 40.677135001083954 }, "geometry": { "type": "Point", "coordinates": [ -73.983416000247061, 40.677135001083954 ] } },
{ "type": "Feature", "properties": { "line": "F-G-R", "name": "4th Ave & 9th St at NW corner", "objectid": 1899.0, "url": "http:\/\/web.mta.info\/nyct\/service\/", "xcoord": -73.988777999574936, "ycoord": 40.67053800048226 }, "geometry": { "type": "Point", "coordinates": [ -73.988777999574936, 40.67053800048226 ] } },
{ "type": "Feature", "properties": { "line": "B-Q-D-N-R-2-3-4-5", "name": "Ashland Pl & Hanson Pl at NE corner", "objectid": 1910.0, "url": "http:\/\/web.mta.info\/nyct\/service\/", "xcoord": -73.977627999511341, "ycoord": 40.685222000693486 }, "geometry": { "type": "Point", "coordinates": [ -73.977627999511341, 40.685222000693486 ] } }
]
}
